[
  {
    "id": "IST",
    "name": "Istanbul Airport",
    "city": "Istanbul",
    "country": "Turkey",
    "lat": 41.2752,
    "lon": 28.7519,
    "type": "Hub"
  },
  {
    "id": "ADB",
    "name": "Adnan Menderes Airport",
    "city": "Izmir",
    "country": "Turkey",
    "lat": 38.2924,
    "lon": 27.157,
    "type": "Hub"
  },
  {
    "id": "AYT",
    "name": "Antalya Airport",
    "city": "Antalya",
    "country": "Turkey",
    "lat": 36.9003,
    "lon": 30.8005,
    "type": "Hub"
  },
  {
    "id": "ESB",
    "name": "Esenboga Airport",
    "city": "Ankara",
    "country": "Turkey",
    "lat": 40.1281,
    "lon": 32.9951,
    "type": "Hub"
  },
  {
    "id": "YEI",
    "name": "Bursa Yenisehir Airport",
    "city": "Bursa",
    "country": "Turkey",
    "lat": 40.2552,
    "lon": 29.5625,
    "type": "Emergency"
  },
  {
    "id": "BZI",
    "name": "Balikesir Airport",
    "city": "Balikesir",
    "country": "Turkey",
    "lat": 39.6186,
    "lon": 27.9178,
    "type": "Emergency"
  },
  {
    "id": "KZR",
    "name": "Zafer Airport",
    "city": "Kutahya",
    "country": "Turkey",
    "lat": 39.1114,
    "lon": 30.1303,
    "type": "Emergency"
  },
  {
    "id": "LHR",
    "name": "Heathrow Airport",
    "city": "London",
    "country": "UK",
    "lat": 51.47,
    "lon": -0.4543,
    "type": "Hub"
  },
  {
    "id": "AMS",
    "name": "Schiphol Airport",
    "city": "Amsterdam",
    "country": "Netherlands",
    "lat": 52.3105,
    "lon": 4.7683,
    "type": "Hub"
  },
  {
    "id": "FRA",
    "name": "Frankfurt Airport",
    "city": "Frankfurt",
    "country": "Germany",
    "lat": 50.0379,
    "lon": 8.5622,
    "type": "Hub"
  },
  {
    "id": "BER",
    "name": "Berlin Brandenburg",
    "city": "Berlin",
    "country": "Germany",
    "lat": 52.3667,
    "lon": 13.5033,
    "type": "Hub"
  },
  {
    "id": "FCO",
    "name": "Fiumicino Airport",
    "city": "Rome",
    "country": "Italy",
    "lat": 41.8003,
    "lon": 12.2389,
    "type": "Hub"
  },
  {
    "id": "MAD",
    "name": "Barajas Airport",
    "city": "Madrid",
    "country": "Spain",
    "lat": 40.4839,
    "lon": -3.568,
    "type": "Hub"
  },
  {
    "id": "MUC",
    "name": "Munich Airport",
    "city": "Munich",
    "country": "Germany",
    "lat": 48.3537,
    "lon": 11.7861,
    "type": "Hub"
  },
  {
    "id": "CDG",
    "name": "Charles de Gaulle",
    "city": "Paris",
    "country": "France",
    "lat": 49.0097,
    "lon": 2.5479,
    "type": "Hub"
  },
  {
    "id": "PRG",
    "name": "Vaclav Havel",
    "city": "Prague",
    "country": "Czech Rep",
    "lat": 50.1008,
    "lon": 14.26,
    "type": "Regional"
  },
  {
    "id": "SVO",
    "name": "Sheremetyevo Airport",
    "city": "Moscow",
    "country": "Russia",
    "lat": 55.9726,
    "lon": 37.4146,
    "type": "Hub"
  },
  {
    "id": "YYZ",
    "name": "Pearson Intl",
    "city": "Toronto",
    "country": "Canada",
    "lat": 43.6777,
    "lon": -79.6248,
    "type": "Hub"
  },
  {
    "id": "YVR",
    "name": "Vancouver Intl",
    "city": "Vancouver",
    "country": "Canada",
    "lat": 49.1967,
    "lon": -123.1815,
    "type": "Hub"
  },
  {
    "id": "JFK",
    "name": "JFK Airport",
    "city": "New York",
    "country": "USA",
    "lat": 40.6413,
    "lon": -73.7781,
    "type": "Hub"
  },
  {
    "id": "KEF",
    "name": "Keflavik Airport",
    "city": "Reykjavik",
    "country": "Iceland",
    "lat": 63.985,
    "lon": -22.6056,
    "type": "Hub"
  },
  {
    "id": "GANDER",
    "name": "Gander Intl",
    "city": "Gander",
    "country": "Canada",
    "lat": 48.9369,
    "lon": -54.5681,
    "type": "Emergency"
  },
  {
    "id": "ICN",
    "name": "Incheon Intl",
    "city": "Seoul",
    "country": "S. Korea",
    "lat": 37.4602,
    "lon": 126.4407,
    "type": "Hub"
  },
  {
    "id": "BKK",
    "name": "Suvarnabhumi",
    "city": "Bangkok",
    "country": "Thailand",
    "lat": 13.69,
    "lon": 100.7501,
    "type": "Hub"
  },
  {
    "id": "SIN",
    "name": "Changi Airport",
    "city": "Singapore",
    "country": "Singapore",
    "lat": 1.3644,
    "lon": 103.9915,
    "type": "Hub"
  },
  {
    "id": "HKG",
    "name": "Hong Kong Intl",
    "city": "Hong Kong",
    "country": "China",
    "lat": 22.3089,
    "lon": 113.9145,
    "type": "Hub"
  },
  {
    "id": "TPE",
    "name": "Taoyuan Intl",
    "city": "Taipei",
    "country": "Taiwan",
    "lat": 25.0797,
    "lon": 121.2342,
    "type": "Regional"
  }
]